[
    {
        "location": {
            "latitude": 3.158812086297208,
            "longitude": 101.71315516457264
        },
        "originalIndex": 0,
        "placeId": "ChIJIcK42dA3zDERQojo6FhRpak"
    },
    {
        "location": {
            "latitude": 3.1588160999999997,
            "longitude": 101.71308239999999
        },
        "placeId": "ChIJIcK42dA3zDERQojo6FhRpak"
    },
    {
        "location": {
            "latitude": 3.1588160999999997,
            "longitude": 101.71308239999999
        },
        "placeId": "ChIJ6XaN1tA3zDERzQCA-dTjrnA"
    },
    {
        "location": {
            "latitude": 3.1588271000000003,
            "longitude": 101.7130036
        },
        "placeId": "ChIJ6XaN1tA3zDERzQCA-dTjrnA"
    },
    {
        "location": {
            "latitude": 3.1588488,
            "longitude": 101.7129049
        },
        "placeId": "ChIJ6XaN1tA3zDERzQCA-dTjrnA"
    },
    {
        "location": {
            "latitude": 3.1588488,
            "longitude": 101.7129049
        },
        "placeId": "ChIJ6XaN1tA3zDERkxPI1n-KBvc"
    },
    {
        "location": {
            "latitude": 3.1588704,
            "longitude": 101.7128326
        },
        "placeId": "ChIJ6XaN1tA3zDERkxPI1n-KBvc"
    },
    {
        "location": {
            "latitude": 3.1588704,
            "longitude": 101.7128326
        },
        "placeId": "ChIJxUE2LNc3zDER-jIWcxSsrO0"
    },
    {
        "location": {
            "latitude": 3.1589764999999996,
            "longitude": 101.7124724
        },
        "placeId": "ChIJxUE2LNc3zDER-jIWcxSsrO0"
    },
    {
        "location": {
            "latitude": 3.1590776,
            "longitude": 101.71209499999999
        },
        "placeId": "ChIJxUE2LNc3zDER-jIWcxSsrO0"
    },
    {
        "location": {
            "latitude": 3.1591747,
            "longitude": 101.7117081
        },
        "placeId": "ChIJxUE2LNc3zDER-jIWcxSsrO0"
    },
    {
        "location": {
            "latitude": 3.1591747,
            "longitude": 101.7117081
        },
        "placeId": "ChIJP-j6JNc3zDERphmI9jzGNqA"
    },
    {
        "location": {
            "latitude": 3.1592189,
            "longitude": 101.71148029999999
        },
        "placeId": "ChIJP-j6JNc3zDERphmI9jzGNqA"
    },
    {
        "location": {
            "latitude": 3.1592189,
            "longitude": 101.71148029999999
        },
        "placeId": "ChIJAfRmI9c3zDERMlv0LZiy1xs"
    },
    {
        "location": {
            "latitude": 3.1592431,
            "longitude": 101.7113648
        },
        "placeId": "ChIJAfRmI9c3zDERMlv0LZiy1xs"
    },
    {
        "location": {
            "latitude": 3.1592431,
            "longitude": 101.7113648
        },
        "placeId": "ChIJP1QkPdc3zDER-p63GyAIpI8"
    },
    {
        "location": {
            "latitude": 3.1592570390007237,
            "longitude": 101.71128082544162
        },
        "originalIndex": 1,
        "placeId": "ChIJP1QkPdc3zDER-p63GyAIpI8"
    },
    {
        "location": {
            "latitude": 3.1592963000000003,
            "longitude": 101.7110443
        },
        "placeId": "ChIJP1QkPdc3zDER-p63GyAIpI8"
    },
    {
        "location": {
            "latitude": 3.1592963000000003,
            "longitude": 101.7110443
        },
        "placeId": "ChIJf1nJENc3zDERrQlg9n9wzwA"
    },
    {
        "location": {
            "latitude": 3.1593275999999997,
            "longitude": 101.71082249999999
        },
        "placeId": "ChIJf1nJENc3zDERrQlg9n9wzwA"
    },
    {
        "location": {
            "latitude": 3.1593423,
            "longitude": 101.7106683
        },
        "placeId": "ChIJf1nJENc3zDERrQlg9n9wzwA"
    },
    {
        "location": {
            "latitude": 3.1593482614238466,
            "longitude": 101.71054572736566
        },
        "originalIndex": 2,
        "placeId": "ChIJf1nJENc3zDERrQlg9n9wzwA"
    },
    {
        "location": {
            "latitude": 3.1593505,
            "longitude": 101.71049970000001
        },
        "placeId": "ChIJf1nJENc3zDERrQlg9n9wzwA"
    },
    {
        "location": {
            "latitude": 3.1593505,
            "longitude": 101.71049970000001
        },
        "placeId": "ChIJy-UiENc3zDERKjV4Ho-o47M"
    },
    {
        "location": {
            "latitude": 3.1593169999999997,
            "longitude": 101.71036529999999
        },
        "placeId": "ChIJy-UiENc3zDERKjV4Ho-o47M"
    },
    {
        "location": {
            "latitude": 3.1593169999999997,
            "longitude": 101.71036529999999
        },
        "placeId": "ChIJmbyCD9c3zDERsrUI7HcKsNc"
    },
    {
        "location": {
            "latitude": 3.1592715000000005,
            "longitude": 101.7102036
        },
        "placeId": "ChIJmbyCD9c3zDERsrUI7HcKsNc"
    },
    {
        "location": {
            "latitude": 3.1592374,
            "longitude": 101.71009339999999
        },
        "placeId": "ChIJmbyCD9c3zDERsrUI7HcKsNc"
    },
    {
        "location": {
            "latitude": 3.1591818000000003,
            "longitude": 101.7099351
        },
        "placeId": "ChIJmbyCD9c3zDERsrUI7HcKsNc"
    },
    {
        "location": {
            "latitude": 3.1591818000000003,
            "longitude": 101.7099351
        },
        "placeId": "ChIJASSrB9c3zDERpC0Ce5ErzGE"
    },
    {
        "location": {
            "latitude": 3.1591613999999995,
            "longitude": 101.7098738
        },
        "placeId": "ChIJASSrB9c3zDERpC0Ce5ErzGE"
    },
    {
        "location": {
            "latitude": 3.1591359999999993,
            "longitude": 101.7098051
        },
        "placeId": "ChIJASSrB9c3zDERpC0Ce5ErzGE"
    },
    {
        "location": {
            "latitude": 3.1590959,
            "longitude": 101.7097288
        },
        "placeId": "ChIJASSrB9c3zDERpC0Ce5ErzGE"
    },
    {
        "location": {
            "latitude": 3.1590959,
            "longitude": 101.7097288
        },
        "placeId": "ChIJi1TNq9c3zDER2CN_G4k6pRM"
    },
    {
        "location": {
            "latitude": 3.159045107359652,
            "longitude": 101.709641137065
        },
        "originalIndex": 3,
        "placeId": "ChIJi1TNq9c3zDER2CN_G4k6pRM"
    },
    {
        "location": {
            "latitude": 3.1589371999999996,
            "longitude": 101.7094549
        },
        "placeId": "ChIJi1TNq9c3zDER2CN_G4k6pRM"
    },
    {
        "location": {
            "latitude": 3.1589371999999996,
            "longitude": 101.7094549
        },
        "placeId": "ChIJi1TNq9c3zDERu36zARXgZ_w"
    },
    {
        "location": {
            "latitude": 3.158827899999999,
            "longitude": 101.7092663
        },
        "placeId": "ChIJi1TNq9c3zDERu36zARXgZ_w"
    },
    {
        "location": {
            "latitude": 3.158827899999999,
            "longitude": 101.7092663
        },
        "placeId": "ChIJnSa-q9c3zDER-Lyy-qTveRI"
    },
    {
        "location": {
            "latitude": 3.1587249,
            "longitude": 101.70909569999999
        },
        "placeId": "ChIJnSa-q9c3zDER-Lyy-qTveRI"
    },
    {
        "location": {
            "latitude": 3.1587249,
            "longitude": 101.70909569999999
        },
        "placeId": "ChIJT7ZeTdY3zDERCy07FcJJZrE"
    },
    {
        "location": {
            "latitude": 3.1586655,
            "longitude": 101.70898679999999
        },
        "placeId": "ChIJT7ZeTdY3zDERCy07FcJJZrE"
    },
    {
        "location": {
            "latitude": 3.1586655,
            "longitude": 101.70898679999999
        },
        "placeId": "ChIJT7ZeTdY3zDERZ-DZJ-A4ctw"
    },
    {
        "location": {
            "latitude": 3.158626682253421,
            "longitude": 101.70892000644865
        },
        "originalIndex": 4,
        "placeId": "ChIJT7ZeTdY3zDERZ-DZJ-A4ctw"
    },
    {
        "location": {
            "latitude": 3.1585563,
            "longitude": 101.70879889999999
        },
        "placeId": "ChIJT7ZeTdY3zDERZ-DZJ-A4ctw"
    },
    {
        "location": {
            "latitude": 3.1585563,
            "longitude": 101.70879889999999
        },
        "placeId": "ChIJz1x0TNY3zDERuy5U6qAgZyc"
    },
    {
        "location": {
            "latitude": 3.1584597,
            "longitude": 101.7086147
        },
        "placeId": "ChIJz1x0TNY3zDERuy5U6qAgZyc"
    },
    {
        "location": {
            "latitude": 3.1584597,
            "longitude": 101.7086147
        },
        "placeId": "ChIJz1x0TNY3zDERj5Qb3e_5C0Y"
    },
    {
        "location": {
            "latitude": 3.1583976999999996,
            "longitude": 101.7084635
        },
        "placeId": "ChIJz1x0TNY3zDERj5Qb3e_5C0Y"
    },
    {
        "location": {
            "latitude": 3.1583976999999996,
            "longitude": 101.7084635
        },
        "placeId": "ChIJAyTfSdY3zDERsfZhuxfgxSQ"
    },
    {
        "location": {
            "latitude": 3.1583552000000004,
            "longitude": 101.70838239999999
        },
        "placeId": "ChIJAyTfSdY3zDERsfZhuxfgxSQ"
    },
    {
        "location": {
            "latitude": 3.1583552000000004,
            "longitude": 101.70838239999999
        },
        "placeId": "ChIJAyTfSdY3zDERd9xRINp5nj8"
    },
    {
        "location": {
            "latitude": 3.1583447000000002,
            "longitude": 101.70835699999999
        },
        "placeId": "ChIJAyTfSdY3zDERd9xRINp5nj8"
    },
    {
        "location": {
            "latitude": 3.1581889000000003,
            "longitude": 101.70808149999999
        },
        "placeId": "ChIJAyTfSdY3zDERd9xRINp5nj8"
    },
    {
        "location": {
            "latitude": 3.1581889000000003,
            "longitude": 101.70808149999999
        },
        "placeId": "ChIJSxzBJNY3zDERyxNNsRSe9B8"
    },
    {
        "location": {
            "latitude": 3.1580766,
            "longitude": 101.7078841
        },
        "placeId": "ChIJSxzBJNY3zDERyxNNsRSe9B8"
    },
    {
        "location": {
            "latitude": 3.1575075,
            "longitude": 101.7068737
        },
        "placeId": "ChIJSxzBJNY3zDERyxNNsRSe9B8"
    },
    {
        "location": {
            "latitude": 3.1575075,
            "longitude": 101.7068737
        },
        "placeId": "ChIJASz53ylIzDERVzdQiul6xbA"
    },
    {
        "location": {
            "latitude": 3.157457993406642,
            "longitude": 101.70677861984342
        },
        "originalIndex": 5,
        "placeId": "ChIJASz53ylIzDERVzdQiul6xbA"
    },
    {
        "location": {
            "latitude": 3.1573488999999997,
            "longitude": 101.7065691
        },
        "placeId": "ChIJASz53ylIzDERVzdQiul6xbA"
    },
    {
        "location": {
            "latitude": 3.1573488999999997,
            "longitude": 101.7065691
        },
        "placeId": "ChIJsfba5ilIzDERcFsdsiY5n3g"
    },
    {
        "location": {
            "latitude": 3.157272,
            "longitude": 101.7064472
        },
        "placeId": "ChIJsfba5ilIzDERcFsdsiY5n3g"
    },
    {
        "location": {
            "latitude": 3.1572023,
            "longitude": 101.70631979999999
        },
        "placeId": "ChIJsfba5ilIzDERcFsdsiY5n3g"
    },
    {
        "location": {
            "latitude": 3.1572023,
            "longitude": 101.70631979999999
        },
        "placeId": "ChIJzzeN5ilIzDERcRCiMlCpaYo"
    },
    {
        "location": {
            "latitude": 3.1571069,
            "longitude": 101.70614529999999
        },
        "placeId": "ChIJzzeN5ilIzDERcRCiMlCpaYo"
    },
    {
        "location": {
            "latitude": 3.1571069,
            "longitude": 101.70614529999999
        },
        "placeId": "ChIJ4zoR7ilIzDERByjXJaa543Y"
    },
    {
        "location": {
            "latitude": 3.1570330999999996,
            "longitude": 101.70601429999999
        },
        "placeId": "ChIJ4zoR7ilIzDERByjXJaa543Y"
    },
    {
        "location": {
            "latitude": 3.1570330999999996,
            "longitude": 101.70601429999999
        },
        "placeId": "ChIJ4zoR7ilIzDERDnFwomyKcPc"
    },
    {
        "location": {
            "latitude": 3.1569214,
            "longitude": 101.7058163
        },
        "placeId": "ChIJ4zoR7ilIzDERDnFwomyKcPc"
    },
    {
        "location": {
            "latitude": 3.1567747999999995,
            "longitude": 101.7055051
        },
        "placeId": "ChIJ4zoR7ilIzDERDnFwomyKcPc"
    },
    {
        "location": {
            "latitude": 3.1567747999999995,
            "longitude": 101.7055051
        },
        "placeId": "ChIJKYAMjSlIzDERmGCG_PH7Y5Q"
    },
    {
        "location": {
            "latitude": 3.1567615,
            "longitude": 101.70548629999999
        },
        "placeId": "ChIJKYAMjSlIzDERmGCG_PH7Y5Q"
    },
    {
        "location": {
            "latitude": 3.1567331999999997,
            "longitude": 101.70542909999999
        },
        "placeId": "ChIJKYAMjSlIzDERmGCG_PH7Y5Q"
    },
    {
        "location": {
            "latitude": 3.15664002232839,
            "longitude": 101.70518277515157
        },
        "originalIndex": 6,
        "placeId": "ChIJKYAMjSlIzDERmGCG_PH7Y5Q"
    },
    {
        "location": {
            "latitude": 3.15658,
            "longitude": 101.70502409999999
        },
        "placeId": "ChIJKYAMjSlIzDERmGCG_PH7Y5Q"
    },
    {
        "location": {
            "latitude": 3.15658,
            "longitude": 101.70502409999999
        },
        "placeId": "ChIJMW4niSlIzDERJC0DHBRz4WQ"
    },
    {
        "location": {
            "latitude": 3.1564755999999994,
            "longitude": 101.70474139999999
        },
        "placeId": "ChIJMW4niSlIzDERJC0DHBRz4WQ"
    },
    {
        "location": {
            "latitude": 3.1564755999999994,
            "longitude": 101.70474139999999
        },
        "placeId": "ChIJzd8hhilIzDERhQh63KBxLVo"
    },
    {
        "location": {
            "latitude": 3.156461457687298,
            "longitude": 101.70462916805178
        },
        "originalIndex": 7,
        "placeId": "ChIJzd8hhilIzDERhQh63KBxLVo"
    },
    {
        "location": {
            "latitude": 3.1564600000000005,
            "longitude": 101.70461759999999
        },
        "placeId": "ChIJzd8hhilIzDERhQh63KBxLVo"
    },
    {
        "location": {
            "latitude": 3.1564600000000005,
            "longitude": 101.70461759999999
        },
        "placeId": "ChIJvetyhilIzDER1nCmE4befTw"
    },
    {
        "location": {
            "latitude": 3.1565605,
            "longitude": 101.7045709
        },
        "placeId": "ChIJvetyhilIzDER1nCmE4befTw"
    },
    {
        "location": {
            "latitude": 3.1565605,
            "longitude": 101.7045709
        },
        "placeId": "ChIJZ3D-hClIzDERO7kL_7IeF9E"
    },
    {
        "location": {
            "latitude": 3.1568451,
            "longitude": 101.7044469
        },
        "placeId": "ChIJZ3D-hClIzDERO7kL_7IeF9E"
    },
    {
        "location": {
            "latitude": 3.1568451,
            "longitude": 101.7044469
        },
        "placeId": "ChIJrwRBmylIzDERQgVPAfdDsZ4"
    },
    {
        "location": {
            "latitude": 3.1570057,
            "longitude": 101.7043527
        },
        "placeId": "ChIJrwRBmylIzDERQgVPAfdDsZ4"
    },
    {
        "location": {
            "latitude": 3.1570057,
            "longitude": 101.7043527
        },
        "placeId": "ChIJtekbnClIzDER6kOO-DSK3nw"
    },
    {
        "location": {
            "latitude": 3.1571982999999997,
            "longitude": 101.7042353
        },
        "placeId": "ChIJtekbnClIzDER6kOO-DSK3nw"
    },
    {
        "location": {
            "latitude": 3.1573441,
            "longitude": 101.7041271
        },
        "placeId": "ChIJtekbnClIzDER6kOO-DSK3nw"
    },
    {
        "location": {
            "latitude": 3.1573441,
            "longitude": 101.7041271
        },
        "placeId": "ChIJg_FqCilIzDER62mMAIpf8iI"
    },
    {
        "location": {
            "latitude": 3.157476107192527,
            "longitude": 101.70401195258206
        },
        "originalIndex": 8,
        "placeId": "ChIJg_FqCilIzDER62mMAIpf8iI"
    },
    {
        "location": {
            "latitude": 3.157597,
            "longitude": 101.7039065
        },
        "placeId": "ChIJg_FqCilIzDER62mMAIpf8iI"
    },
    {
        "location": {
            "latitude": 3.1577117,
            "longitude": 101.70378830000001
        },
        "placeId": "ChIJg_FqCilIzDER62mMAIpf8iI"
    },
    {
        "location": {
            "latitude": 3.1578151,
            "longitude": 101.7036624
        },
        "placeId": "ChIJg_FqCilIzDER62mMAIpf8iI"
    },
    {
        "location": {
            "latitude": 3.1579196000000005,
            "longitude": 101.7035229
        },
        "placeId": "ChIJg_FqCilIzDER62mMAIpf8iI"
    },
    {
        "location": {
            "latitude": 3.1579196000000005,
            "longitude": 101.7035229
        },
        "placeId": "ChIJw1HDDylIzDERP6Cch0vgsKU"
    },
    {
        "location": {
            "latitude": 3.1580033999999992,
            "longitude": 101.7033808
        },
        "placeId": "ChIJw1HDDylIzDERP6Cch0vgsKU"
    },
    {
        "location": {
            "latitude": 3.158096492831638,
            "longitude": 101.70320721042926
        },
        "originalIndex": 9,
        "placeId": "ChIJw1HDDylIzDERP6Cch0vgsKU"
    },
    {
        "location": {
            "latitude": 3.1581452999999997,
            "longitude": 101.7031162
        },
        "placeId": "ChIJw1HDDylIzDERP6Cch0vgsKU"
    },
    {
        "location": {
            "latitude": 3.1581452999999997,
            "longitude": 101.7031162
        },
        "placeId": "ChIJM_2hGSlIzDERmg7PvfXb6zg"
    },
    {
        "location": {
            "latitude": 3.1583506,
            "longitude": 101.702685
        },
        "placeId": "ChIJM_2hGSlIzDERmg7PvfXb6zg"
    },
    {
        "location": {
            "latitude": 3.1584159,
            "longitude": 101.7025299
        },
        "placeId": "ChIJM_2hGSlIzDERmg7PvfXb6zg"
    },
    {
        "location": {
            "latitude": 3.1584159,
            "longitude": 101.7025299
        },
        "placeId": "ChIJ49lEISlIzDERV1AFw_EaHOk"
    },
    {
        "location": {
            "latitude": 3.1585018000000002,
            "longitude": 101.7022884
        },
        "placeId": "ChIJ49lEISlIzDERV1AFw_EaHOk"
    },
    {
        "location": {
            "latitude": 3.1585734,
            "longitude": 101.70207789999999
        },
        "placeId": "ChIJ49lEISlIzDERV1AFw_EaHOk"
    },
    {
        "location": {
            "latitude": 3.1585734,
            "longitude": 101.70207789999999
        },
        "placeId": "ChIJ8UhMJilIzDER2EMGg_w7Nos"
    },
    {
        "location": {
            "latitude": 3.1586179,
            "longitude": 101.7019581
        },
        "placeId": "ChIJ8UhMJilIzDER2EMGg_w7Nos"
    },
    {
        "location": {
            "latitude": 3.1586179,
            "longitude": 101.7019581
        },
        "placeId": "ChIJ9f_KKSlIzDEROHPgsoQDaqc"
    },
    {
        "location": {
            "latitude": 3.1587023,
            "longitude": 101.7016713
        },
        "placeId": "ChIJ9f_KKSlIzDEROHPgsoQDaqc"
    },
    {
        "location": {
            "latitude": 3.1587023,
            "longitude": 101.7016713
        },
        "placeId": "ChIJ0doBKilIzDERGTweio8nAkg"
    },
    {
        "location": {
            "latitude": 3.1587829999999992,
            "longitude": 101.7014303
        },
        "placeId": "ChIJ0doBKilIzDERGTweio8nAkg"
    },
    {
        "location": {
            "latitude": 3.1587829999999992,
            "longitude": 101.7014303
        },
        "placeId": "ChIJUduO1ShIzDER0Btj8Uyf6A4"
    },
    {
        "location": {
            "latitude": 3.158808816545421,
            "longitude": 101.70136247228186
        },
        "originalIndex": 10,
        "placeId": "ChIJUduO1ShIzDER0Btj8Uyf6A4"
    },
    {
        "location": {
            "latitude": 3.1588210999999995,
            "longitude": 101.7013302
        },
        "placeId": "ChIJUduO1ShIzDER0Btj8Uyf6A4"
    },
    {
        "location": {
            "latitude": 3.1588210999999995,
            "longitude": 101.7013302
        },
        "placeId": "ChIJ6ybdKi9IzDERohSTSkn8T-o"
    },
    {
        "location": {
            "latitude": 3.1589835999999996,
            "longitude": 101.7007697
        },
        "placeId": "ChIJ6ybdKi9IzDERohSTSkn8T-o"
    },
    {
        "location": {
            "latitude": 3.1589835999999996,
            "longitude": 101.7007697
        },
        "placeId": "ChIJ6yrcKC9IzDER6SuT82nTWjo"
    },
    {
        "location": {
            "latitude": 3.1590119999999997,
            "longitude": 101.70066349999999
        },
        "placeId": "ChIJ6yrcKC9IzDER6SuT82nTWjo"
    },
    {
        "location": {
            "latitude": 3.1590433000000004,
            "longitude": 101.7005214
        },
        "placeId": "ChIJ6yrcKC9IzDER6SuT82nTWjo"
    },
    {
        "location": {
            "latitude": 3.1590677,
            "longitude": 101.7003931
        },
        "placeId": "ChIJ6yrcKC9IzDER6SuT82nTWjo"
    },
    {
        "location": {
            "latitude": 3.1590677,
            "longitude": 101.7003931
        },
        "placeId": "ChIJFRtWIS9IzDERJfBEmS3uKO8"
    },
    {
        "location": {
            "latitude": 3.1590799,
            "longitude": 101.70030179999999
        },
        "placeId": "ChIJFRtWIS9IzDERJfBEmS3uKO8"
    },
    {
        "location": {
            "latitude": 3.1591031,
            "longitude": 101.7000989
        },
        "placeId": "ChIJFRtWIS9IzDERJfBEmS3uKO8"
    },
    {
        "location": {
            "latitude": 3.15911261062764,
            "longitude": 101.69996123492383
        },
        "originalIndex": 11,
        "placeId": "ChIJFRtWIS9IzDERJfBEmS3uKO8"
    },
    {
        "location": {
            "latitude": 3.159125,
            "longitude": 101.69978189999999
        },
        "placeId": "ChIJFRtWIS9IzDERJfBEmS3uKO8"
    },
    {
        "location": {
            "latitude": 3.159125,
            "longitude": 101.69978189999999
        },
        "placeId": "ChIJ4VCzHi9IzDER5sHIhmQe32k"
    },
    {
        "location": {
            "latitude": 3.1591762,
            "longitude": 101.6991437
        },
        "placeId": "ChIJ4VCzHi9IzDER5sHIhmQe32k"
    },
    {
        "location": {
            "latitude": 3.1591762,
            "longitude": 101.6991437
        },
        "placeId": "ChIJK_KOBC9IzDERPOX3C4vW12I"
    },
    {
        "location": {
            "latitude": 3.1592279999999997,
            "longitude": 101.6985649
        },
        "placeId": "ChIJK_KOBC9IzDERPOX3C4vW12I"
    },
    {
        "location": {
            "latitude": 3.1592279999999997,
            "longitude": 101.6985649
        },
        "placeId": "ChIJuaN8qC9IzDERtqCqXWVSkU4"
    },
    {
        "location": {
            "latitude": 3.159268871856648,
            "longitude": 101.69823273510482
        },
        "originalIndex": 12,
        "placeId": "ChIJuaN8qC9IzDERtqCqXWVSkU4"
    },
    {
        "location": {
            "latitude": 3.1592721,
            "longitude": 101.6982065
        },
        "placeId": "ChIJuaN8qC9IzDERtqCqXWVSkU4"
    },
    {
        "location": {
            "latitude": 3.1592946999999993,
            "longitude": 101.698107
        },
        "placeId": "ChIJuaN8qC9IzDERtqCqXWVSkU4"
    },
    {
        "location": {
            "latitude": 3.1593182999999994,
            "longitude": 101.6980226
        },
        "placeId": "ChIJuaN8qC9IzDERtqCqXWVSkU4"
    },
    {
        "location": {
            "latitude": 3.1593969,
            "longitude": 101.6977977
        },
        "placeId": "ChIJuaN8qC9IzDERtqCqXWVSkU4"
    },
    {
        "location": {
            "latitude": 3.159534561541749,
            "longitude": 101.69744767274817
        },
        "originalIndex": 13,
        "placeId": "ChIJuaN8qC9IzDERtqCqXWVSkU4"
    },
    {
        "location": {
            "latitude": 3.1595762,
            "longitude": 101.69734179999999
        },
        "placeId": "ChIJuaN8qC9IzDERtqCqXWVSkU4"
    },
    {
        "location": {
            "latitude": 3.1595762,
            "longitude": 101.69734179999999
        },
        "placeId": "ChIJU3rIuy9IzDERZwTbhMqXEVc"
    },
    {
        "location": {
            "latitude": 3.1596333999999993,
            "longitude": 101.69724629999999
        },
        "placeId": "ChIJU3rIuy9IzDERZwTbhMqXEVc"
    },
    {
        "location": {
            "latitude": 3.1596333999999993,
            "longitude": 101.69724629999999
        },
        "placeId": "ChIJs-FIuS9IzDER6rbsZMobZN8"
    },
    {
        "location": {
            "latitude": 3.1597167,
            "longitude": 101.69709809999999
        },
        "placeId": "ChIJs-FIuS9IzDER6rbsZMobZN8"
    },
    {
        "location": {
            "latitude": 3.1597167,
            "longitude": 101.69709809999999
        },
        "placeId": "ChIJzUgVvy9IzDERjmsGPsILDoA"
    },
    {
        "location": {
            "latitude": 3.1598704999999994,
            "longitude": 101.69687739999999
        },
        "placeId": "ChIJzUgVvy9IzDERjmsGPsILDoA"
    },
    {
        "location": {
            "latitude": 3.1598704999999994,
            "longitude": 101.69687739999999
        },
        "placeId": "ChIJ5-Hi6S9IzDERyI438zO7t4g"
    },
    {
        "location": {
            "latitude": 3.159889280721726,
            "longitude": 101.69684697076362
        },
        "originalIndex": 14,
        "placeId": "ChIJ5-Hi6S9IzDERyI438zO7t4g"
    },
    {
        "location": {
            "latitude": 3.1599545000000004,
            "longitude": 101.6967413
        },
        "placeId": "ChIJ5-Hi6S9IzDERyI438zO7t4g"
    },
    {
        "location": {
            "latitude": 3.1602448,
            "longitude": 101.6962992
        },
        "placeId": "ChIJ5-Hi6S9IzDERyI438zO7t4g"
    },
    {
        "location": {
            "latitude": 3.1603863,
            "longitude": 101.696092
        },
        "placeId": "ChIJ5-Hi6S9IzDERyI438zO7t4g"
    },
    {
        "location": {
            "latitude": 3.1603863,
            "longitude": 101.696092
        },
        "placeId": "ChIJgQMV5C9IzDERssQgvEfXs6g"
    },
    {
        "location": {
            "latitude": 3.160597,
            "longitude": 101.6957999
        },
        "placeId": "ChIJgQMV5C9IzDERssQgvEfXs6g"
    },
    {
        "location": {
            "latitude": 3.1606406000000002,
            "longitude": 101.6957341
        },
        "placeId": "ChIJgQMV5C9IzDERssQgvEfXs6g"
    },
    {
        "location": {
            "latitude": 3.1606406000000002,
            "longitude": 101.6957341
        },
        "placeId": "ChIJV1Oz4i9IzDERCMmO3xR8id0"
    },
    {
        "location": {
            "latitude": 3.1608191999999997,
            "longitude": 101.6954948
        },
        "placeId": "ChIJV1Oz4i9IzDERCMmO3xR8id0"
    },
    {
        "location": {
            "latitude": 3.1608471,
            "longitude": 101.6954449
        },
        "placeId": "ChIJV1Oz4i9IzDERCMmO3xR8id0"
    },
    {
        "location": {
            "latitude": 3.1608471,
            "longitude": 101.6954449
        },
        "placeId": "ChIJm8oPAjBIzDERiD8tuuyqqvs"
    },
    {
        "location": {
            "latitude": 3.1609236017978075,
            "longitude": 101.69547148903754
        },
        "originalIndex": 15,
        "placeId": "ChIJm8oPAjBIzDERiD8tuuyqqvs"
    },
    {
        "location": {
            "latitude": 3.1609947,
            "longitude": 101.6954962
        },
        "placeId": "ChIJm8oPAjBIzDERiD8tuuyqqvs"
    },
    {
        "location": {
            "latitude": 3.1609947,
            "longitude": 101.6954962
        },
        "placeId": "ChIJ9QAn_i9IzDERlCBx40fz5wY"
    },
    {
        "location": {
            "latitude": 3.1612736999999997,
            "longitude": 101.6955653
        },
        "placeId": "ChIJ9QAn_i9IzDERlCBx40fz5wY"
    },
    {
        "location": {
            "latitude": 3.1612736999999997,
            "longitude": 101.6955653
        },
        "placeId": "ChIJL-H1_y9IzDERbZ8q7r6sL80"
    },
    {
        "location": {
            "latitude": 3.1613721,
            "longitude": 101.69559679999999
        },
        "placeId": "ChIJL-H1_y9IzDERbZ8q7r6sL80"
    },
    {
        "location": {
            "latitude": 3.1613721,
            "longitude": 101.69559679999999
        },
        "placeId": "ChIJzZruVCVIzDERpUCedVPJV4w"
    },
    {
        "location": {
            "latitude": 3.1616331999999994,
            "longitude": 101.6955821
        },
        "placeId": "ChIJzZruVCVIzDERpUCedVPJV4w"
    },
    {
        "location": {
            "latitude": 3.1616331999999994,
            "longitude": 101.6955821
        },
        "placeId": "ChIJM72aTSVIzDEReVuw841vqaM"
    },
    {
        "location": {
            "latitude": 3.1619053860926076,
            "longitude": 101.69571560833222
        },
        "originalIndex": 16,
        "placeId": "ChIJM72aTSVIzDEReVuw841vqaM"
    },
    {
        "location": {
            "latitude": 3.1621808,
            "longitude": 101.6958507
        },
        "placeId": "ChIJM72aTSVIzDEReVuw841vqaM"
    },
    {
        "location": {
            "latitude": 3.1621808,
            "longitude": 101.6958507
        },
        "placeId": "ChIJJXWASyVIzDERzU8SKEHw-XE"
    },
    {
        "location": {
            "latitude": 3.16233770870333,
            "longitude": 101.69586778061019
        },
        "originalIndex": 17,
        "placeId": "ChIJJXWASyVIzDERzU8SKEHw-XE"
    },
    {
        "location": {
            "latitude": 3.1623829,
            "longitude": 101.6958727
        },
        "placeId": "ChIJJXWASyVIzDERzU8SKEHw-XE"
    },
    {
        "location": {
            "latitude": 3.1623829,
            "longitude": 101.6958727
        },
        "placeId": "ChIJTf8ASiVIzDERRX8BZEiLBZU"
    },
    {
        "location": {
            "latitude": 3.1628195999999997,
            "longitude": 101.6959348
        },
        "placeId": "ChIJTf8ASiVIzDERRX8BZEiLBZU"
    },
    {
        "location": {
            "latitude": 3.1628195999999997,
            "longitude": 101.6959348
        },
        "placeId": "ChIJG8RIMSVIzDER20fbJ_UM_40"
    },
    {
        "location": {
            "latitude": 3.1629154,
            "longitude": 101.69594810000001
        },
        "placeId": "ChIJG8RIMSVIzDER20fbJ_UM_40"
    },
    {
        "location": {
            "latitude": 3.1629154,
            "longitude": 101.69594810000001
        },
        "placeId": "ChIJK2FXMSVIzDERvYyv_rphmBY"
    },
    {
        "location": {
            "latitude": 3.1629889999999996,
            "longitude": 101.69595629999999
        },
        "placeId": "ChIJK2FXMSVIzDERvYyv_rphmBY"
    },
    {
        "location": {
            "latitude": 3.1629889999999996,
            "longitude": 101.69595629999999
        },
        "placeId": "ChIJUTghLyVIzDERnpKe_VEXKms"
    },
    {
        "location": {
            "latitude": 3.1635754,
            "longitude": 101.69603839999999
        },
        "placeId": "ChIJUTghLyVIzDERnpKe_VEXKms"
    },
    {
        "location": {
            "latitude": 3.1637524,
            "longitude": 101.69606909999999
        },
        "placeId": "ChIJUTghLyVIzDERnpKe_VEXKms"
    },
    {
        "location": {
            "latitude": 3.1637524,
            "longitude": 101.69606909999999
        },
        "placeId": "ChIJ_dCl0CRIzDER_Jl0u6sbi9w"
    },
    {
        "location": {
            "latitude": 3.164092600000001,
            "longitude": 101.69609059999999
        },
        "placeId": "ChIJ_dCl0CRIzDER_Jl0u6sbi9w"
    },
    {
        "location": {
            "latitude": 3.1644303,
            "longitude": 101.6961493
        },
        "placeId": "ChIJ_dCl0CRIzDER_Jl0u6sbi9w"
    },
    {
        "location": {
            "latitude": 3.1644303,
            "longitude": 101.6961493
        },
        "placeId": "ChIJg9kwxiRIzDERfqUzmr0A4Nw"
    },
    {
        "location": {
            "latitude": 3.1650925811402755,
            "longitude": 101.69620833845701
        },
        "originalIndex": 18,
        "placeId": "ChIJg9kwxiRIzDERfqUzmr0A4Nw"
    },
    {
        "location": {
            "latitude": 3.1651617,
            "longitude": 101.6962145
        },
        "placeId": "ChIJg9kwxiRIzDERfqUzmr0A4Nw"
    },
    {
        "location": {
            "latitude": 3.1651617,
            "longitude": 101.6962145
        },
        "placeId": "ChIJ6yCUuSRIzDERVgrxtNL5yKc"
    },
    {
        "location": {
            "latitude": 3.1652815999999993,
            "longitude": 101.6962247
        },
        "placeId": "ChIJ6yCUuSRIzDERVgrxtNL5yKc"
    },
    {
        "location": {
            "latitude": 3.1652815999999993,
            "longitude": 101.6962247
        },
        "placeId": "ChIJ7z7DuiRIzDERC6h3EomUExc"
    },
    {
        "location": {
            "latitude": 3.1658052999999997,
            "longitude": 101.6962628
        },
        "placeId": "ChIJ7z7DuiRIzDERC6h3EomUExc"
    },
    {
        "location": {
            "latitude": 3.1658052999999997,
            "longitude": 101.6962628
        },
        "placeId": "ChIJPbLPpSRIzDERJcaElyjWQmI"
    },
    {
        "location": {
            "latitude": 3.1659545,
            "longitude": 101.69627949999999
        },
        "placeId": "ChIJPbLPpSRIzDERJcaElyjWQmI"
    },
    {
        "location": {
            "latitude": 3.1659545,
            "longitude": 101.69627949999999
        },
        "placeId": "ChIJSTNTpiRIzDERGla8QkcKE3w"
    },
    {
        "location": {
            "latitude": 3.1661880000000004,
            "longitude": 101.6963
        },
        "placeId": "ChIJSTNTpiRIzDERGla8QkcKE3w"
    },
    {
        "location": {
            "latitude": 3.1661880000000004,
            "longitude": 101.6963
        },
        "placeId": "ChIJU8yuWSNIzDERn5kh6jIDyXc"
    },
    {
        "location": {
            "latitude": 3.1665943,
            "longitude": 101.696339
        },
        "placeId": "ChIJU8yuWSNIzDERn5kh6jIDyXc"
    },
    {
        "location": {
            "latitude": 3.1665943,
            "longitude": 101.696339
        },
        "originalIndex": 19,
        "placeId": "ChIJS6F1WiNIzDERzIyS40Hp1r0"
    },
    {
        "location": {
            "latitude": 3.1666519,
            "longitude": 101.6960014
        },
        "placeId": "ChIJS6F1WiNIzDERzIyS40Hp1r0"
    },
    {
        "location": {
            "latitude": 3.1666519,
            "longitude": 101.6960014
        },
        "placeId": "ChIJ65ECUSNIzDERjqbRNZ_319E"
    },
    {
        "location": {
            "latitude": 3.1666668999999996,
            "longitude": 101.6959406
        },
        "placeId": "ChIJ65ECUSNIzDERjqbRNZ_319E"
    },
    {
        "location": {
            "latitude": 3.1666668999999996,
            "longitude": 101.6959406
        },
        "placeId": "ChIJ30cwUiNIzDERq-JlKPuxdsg"
    },
    {
        "location": {
            "latitude": 3.1667224999999997,
            "longitude": 101.6956051
        },
        "placeId": "ChIJ30cwUiNIzDERq-JlKPuxdsg"
    },
    {
        "location": {
            "latitude": 3.1667224999999997,
            "longitude": 101.6956051
        },
        "placeId": "ChIJZ_T3rTxIzDER0GTzhFqQ4S8"
    },
    {
        "location": {
            "latitude": 3.1668323000000003,
            "longitude": 101.6950932
        },
        "placeId": "ChIJZ_T3rTxIzDER0GTzhFqQ4S8"
    },
    {
        "location": {
            "latitude": 3.1668323000000003,
            "longitude": 101.6950932
        },
        "placeId": "ChIJR2zasTxIzDERhv2LFuf6m_I"
    },
    {
        "location": {
            "latitude": 3.1669060000000004,
            "longitude": 101.6947184
        },
        "placeId": "ChIJR2zasTxIzDERhv2LFuf6m_I"
    },
    {
        "location": {
            "latitude": 3.1669060000000004,
            "longitude": 101.6947184
        },
        "placeId": "ChIJkw8kuzxIzDERgowUQi6f8yU"
    },
    {
        "location": {
            "latitude": 3.16693300499554,
            "longitude": 101.69459179642826
        },
        "originalIndex": 20,
        "placeId": "ChIJkw8kuzxIzDERgowUQi6f8yU"
    },
    {
        "location": {
            "latitude": 3.1669726999999996,
            "longitude": 101.69440569999999
        },
        "placeId": "ChIJkw8kuzxIzDERgowUQi6f8yU"
    },
    {
        "location": {
            "latitude": 3.1669726999999996,
            "longitude": 101.69440569999999
        },
        "placeId": "ChIJEyrsvDxIzDERzCbFP-PjuZI"
    },
    {
        "location": {
            "latitude": 3.1670191999999995,
            "longitude": 101.6941569
        },
        "placeId": "ChIJEyrsvDxIzDERzCbFP-PjuZI"
    },
    {
        "location": {
            "latitude": 3.1670191999999995,
            "longitude": 101.6941569
        },
        "placeId": "ChIJV5E7ljxIzDERq8u-wDDk42o"
    },
    {
        "location": {
            "latitude": 3.1670905,
            "longitude": 101.693782
        },
        "placeId": "ChIJV5E7ljxIzDERq8u-wDDk42o"
    },
    {
        "location": {
            "latitude": 3.1670905,
            "longitude": 101.693782
        },
        "placeId": "ChIJSWsTkTxIzDERoYNbRJKhBWA"
    },
    {
        "location": {
            "latitude": 3.1670965000000004,
            "longitude": 101.693702
        },
        "placeId": "ChIJSWsTkTxIzDERoYNbRJKhBWA"
    },
    {
        "location": {
            "latitude": 3.1670965000000004,
            "longitude": 101.693702
        },
        "placeId": "ChIJSWsTkTxIzDER3Eb5h167yxo"
    },
    {
        "location": {
            "latitude": 3.1671079999999994,
            "longitude": 101.6935061
        },
        "placeId": "ChIJSWsTkTxIzDER3Eb5h167yxo"
    },
    {
        "location": {
            "latitude": 3.1671059,
            "longitude": 101.6934342
        },
        "placeId": "ChIJSWsTkTxIzDER3Eb5h167yxo"
    },
    {
        "location": {
            "latitude": 3.1670959135408627,
            "longitude": 101.69331535124776
        },
        "originalIndex": 21,
        "placeId": "ChIJSWsTkTxIzDER3Eb5h167yxo"
    },
    {
        "location": {
            "latitude": 3.1670957999999994,
            "longitude": 101.693314
        },
        "placeId": "ChIJSWsTkTxIzDER3Eb5h167yxo"
    },
    {
        "location": {
            "latitude": 3.1670957999999994,
            "longitude": 101.693314
        },
        "placeId": "ChIJlWMjjzxIzDEReiTg0a3gx18"
    },
    {
        "location": {
            "latitude": 3.1670529,
            "longitude": 101.6932502
        },
        "placeId": "ChIJlWMjjzxIzDEReiTg0a3gx18"
    },
    {
        "location": {
            "latitude": 3.1670529,
            "longitude": 101.6932502
        },
        "placeId": "ChIJlWMjjzxIzDERMnjO4xFOGgA"
    },
    {
        "location": {
            "latitude": 3.1670411,
            "longitude": 101.6932327
        },
        "placeId": "ChIJlWMjjzxIzDERMnjO4xFOGgA"
    },
    {
        "location": {
            "latitude": 3.1670257999999993,
            "longitude": 101.693193
        },
        "placeId": "ChIJlWMjjzxIzDERMnjO4xFOGgA"
    },
    {
        "location": {
            "latitude": 3.1670127,
            "longitude": 101.6931453
        },
        "placeId": "ChIJlWMjjzxIzDERMnjO4xFOGgA"
    },
    {
        "location": {
            "latitude": 3.1669080999999997,
            "longitude": 101.6927276
        },
        "placeId": "ChIJlWMjjzxIzDERMnjO4xFOGgA"
    },
    {
        "location": {
            "latitude": 3.1669080999999997,
            "longitude": 101.6927276
        },
        "placeId": "ChIJbRvTYjxIzDERgcmZZ-eE5Nk"
    },
    {
        "location": {
            "latitude": 3.1667452999999997,
            "longitude": 101.69214869999999
        },
        "placeId": "ChIJbRvTYjxIzDERgcmZZ-eE5Nk"
    },
    {
        "location": {
            "latitude": 3.1667452999999997,
            "longitude": 101.69214869999999
        },
        "placeId": "ChIJvx6LejxIzDERTVg20PxCxCU"
    },
    {
        "location": {
            "latitude": 3.1666249,
            "longitude": 101.69162689999999
        },
        "placeId": "ChIJvx6LejxIzDERTVg20PxCxCU"
    },
    {
        "location": {
            "latitude": 3.1666249,
            "longitude": 101.69162689999999
        },
        "placeId": "ChIJ3X1DcTxIzDERV9gWz62F6_Q"
    },
    {
        "location": {
            "latitude": 3.1665679,
            "longitude": 101.6913878
        },
        "placeId": "ChIJ3X1DcTxIzDERV9gWz62F6_Q"
    },
    {
        "location": {
            "latitude": 3.1665679,
            "longitude": 101.6913878
        },
        "placeId": "ChIJL5WYdDxIzDERTYFl-meF3F0"
    },
    {
        "location": {
            "latitude": 3.1665239,
            "longitude": 101.69117349999999
        },
        "placeId": "ChIJL5WYdDxIzDERTYFl-meF3F0"
    },
    {
        "location": {
            "latitude": 3.1665239,
            "longitude": 101.69117349999999
        },
        "placeId": "ChIJTUpBCzxIzDERHTlmmecw1HI"
    },
    {
        "location": {
            "latitude": 3.1664984000000005,
            "longitude": 101.6910676
        },
        "placeId": "ChIJTUpBCzxIzDERHTlmmecw1HI"
    },
    {
        "location": {
            "latitude": 3.1664984000000005,
            "longitude": 101.6910676
        },
        "originalIndex": 22,
        "placeId": "ChIJo7FkCzxIzDERBtnltPdgqGY"
    },
    {
        "location": {
            "latitude": 3.1665909,
            "longitude": 101.6910446
        },
        "placeId": "ChIJo7FkCzxIzDERBtnltPdgqGY"
    },
    {
        "location": {
            "latitude": 3.1665909,
            "longitude": 101.6910446
        },
        "originalIndex": 23,
        "placeId": "ChIJAfKXDDxIzDERVhcAyJe6Du0"
    },
    {
        "location": {
            "latitude": 3.1666158,
            "longitude": 101.6911545
        },
        "placeId": "ChIJAfKXDDxIzDERVhcAyJe6Du0"
    },
    {
        "location": {
            "latitude": 3.1666158,
            "longitude": 101.6911545
        },
        "placeId": "ChIJ5xpcczxIzDER_qSsLYE13KI"
    },
    {
        "location": {
            "latitude": 3.1666798,
            "longitude": 101.69144490000001
        },
        "placeId": "ChIJ5xpcczxIzDER_qSsLYE13KI"
    },
    {
        "location": {
            "latitude": 3.1666798,
            "longitude": 101.69144490000001
        },
        "placeId": "ChIJSThjcTxIzDERyyK_lMqLK4U"
    },
    {
        "location": {
            "latitude": 3.1667151999999996,
            "longitude": 101.69159529999999
        },
        "placeId": "ChIJSThjcTxIzDERyyK_lMqLK4U"
    },
    {
        "location": {
            "latitude": 3.1667151999999996,
            "longitude": 101.69159529999999
        },
        "placeId": "ChIJByQHcTxIzDERZR20XF9hhzs"
    },
    {
        "location": {
            "latitude": 3.1667280000000004,
            "longitude": 101.6916518
        },
        "placeId": "ChIJByQHcTxIzDERZR20XF9hhzs"
    },
    {
        "location": {
            "latitude": 3.1667280000000004,
            "longitude": 101.6916518
        },
        "placeId": "ChIJf6G6ejxIzDER5uSNNxxu0vU"
    },
    {
        "location": {
            "latitude": 3.166845,
            "longitude": 101.69211680000001
        },
        "placeId": "ChIJf6G6ejxIzDER5uSNNxxu0vU"
    },
    {
        "location": {
            "latitude": 3.166845,
            "longitude": 101.69211680000001
        },
        "placeId": "ChIJp5IcYzxIzDERqtb4r4oKQsM"
    },
    {
        "location": {
            "latitude": 3.1670526999999997,
            "longitude": 101.6928011
        },
        "placeId": "ChIJp5IcYzxIzDERqtb4r4oKQsM"
    },
    {
        "location": {
            "latitude": 3.1670526999999997,
            "longitude": 101.6928011
        },
        "placeId": "ChIJBXwDiTxIzDERtEJZ9S108mk"
    },
    {
        "location": {
            "latitude": 3.1670565,
            "longitude": 101.692819
        },
        "placeId": "ChIJBXwDiTxIzDERtEJZ9S108mk"
    },
    {
        "location": {
            "latitude": 3.1670565,
            "longitude": 101.692819
        },
        "placeId": "ChIJOy_vjjxIzDER5t5DxY1j5Xo"
    },
    {
        "location": {
            "latitude": 3.1670600213411157,
            "longitude": 101.69283541824761
        },
        "originalIndex": 24,
        "placeId": "ChIJOy_vjjxIzDER5t5DxY1j5Xo"
    }
]